# Zones #

- name: home
  latitude: !secret home_latitude
  longitude: !secret home_longitude
  radius: 100
  icon: mdi:home

- name: Insitu - Eagle Point
  latitude: !secret insitu_ep_lat
  longitude: !secret insitu_ep_long
  radius: 300
  icon: mdi:briefcase
  
- name: Insitu - Waucoma
  latitude: !secret insitu_wa_lat
  longitude: !secret insitu_wa_long
  radius: 100
  icon: mdi:briefcase
  
- name: Simplexity
  latitude: !secret simplexity_lat
  longitude: !secret simplexity_long
  radius: 175
  icon: mdi:briefcase
  
- name: Simplexity
  latitude: !secret simplexity_sd_lat
  longitude: !secret simplexity_sd_long
  radius: 75
  icon: mdi:briefcase
  
- name: Simplexity
  latitude: !secret simplexity_sea_lat
  longitude: !secret simplexity_sea_long
  radius: 50
  icon: mdi:briefcase

- name: LSAC
  latitude: 45.6890943
  longitude: -122.6956240
  radius: 200
  icon: mdi:pool

- name: KPDX
  latitude: 45.589073
  longitude: -122.594389
  radius: 442
  icon: mdi:airport

- name: KLAX
  latitude: 33.943638
  longitude: -118.404285
  radius: 782
  icon: mdi:airport

- name: KSLC
  latitude: 40.785933
  longitude: -111.984844
  radius: 678
  icon: mdi:airport

- name: KATL
  latitude: 33.640388
  longitude: -84.432303
  radius: 1561
  icon: mdi:airport

- name: KMSP
  latitude: 44.882179
  longitude: -93.208769
  radius: 783
  icon: mdi:airport

- name: KDTW
  latitude: 42.208961
  longitude: -83.357968
  radius: 818
  icon: mdi:airport

- name: KSEA
  latitude: 47.443585
  longitude: -122.301951
  radius: 695
  icon: mdi:airport

- name: KJFK
  latitude: 40.6447
  longitude: -73.784509
  radius: 1145
  icon: mdi:airport

- name: EHAM
  latitude: 52.308447
  longitude: 4.760656
  radius: 964
  icon: mdi:airport

- name: L&D Smith
  latitude: !secret l_and_d_lat
  longitude: !secret l_and_d_long
  radius: 17
  icon: mdi:home-outline

- name: Moe & Joe
  latitude: !secret m_and_j_lat
  longitude: !secret m_and_j_long
  radius: 115
  icon: mdi:home-outline

- name: Mark & Lindsey
  latitude: !secret mark_linds_lat
  longitude: !secret mark_linds_long
  radius: 13
  icon: mdi:home-outline

- name: Steph & Lukas
  latitude: !secret steph_lukas_lat
  longitude: !secret steph_lukas_long
  radius: 23
  icon: mdi:home-outline

- name: Kristy
  latitude: !secret kristy_tim_lat
  longitude: !secret kristy_tim_long
  radius: 92
  icon: mdi:barn

- name: Freddy
  latitude: !secret freddy_lat
  longitude: !secret freddy_long
  radius: 128
  icon: mdi:cart

- name: Georgia Tech
  latitude: 33.777167
  longitude: -84.398698
  radius: 920
  icon: mdi:school

- name: Safeway
  latitude: !secret safeway_lat
  longitude: !secret safeway_long
  radius: 98
  icon: mdi:cart
  
- name: KSAT
  latitude: 29.527074
  longitude: -98.472558
  radius: 363
  icon: mdi:airport

- name: Jennifer
  latitude: !secret jennifer_lat
  longitude: !secret jennifer_long
  radius: 42
  icon: mdi:home-outline

- name: DJ & Sarah
  latitude: !secret dj_sarah_lat
  longitude: !secret dj_sarah_long
  radius: 42
  icon: mdi:home-outline

- name: Leslie & Janice
  latitude: !secret leslie_janice_lat
  longitude: !secret leslie_janice_long
  radius: 38
  icon: mdi:home-outline

- name: Barry & Fran
  latitude: !secret barry_fran_lat
  longitude: !secret barry_fran_long
  radius: 29
  icon: mdi:home-outline
  
- name: Grandma
  latitude: !secret grandma_lat
  longitude: !secret grandma_long
  radius: 42
  icon: mdi:home-outline
  
- name: CFA
  latitude: !secret cfa0_lat
  longitude: !secret cfa0_long
  radius: 30
  icon: mdi:food
  
- name: Pearson - VUO
  latitude: 45.621990
  longitude: -122.653094
  radius: 275
  icon: mdi:airport
  
- name: Scappoose
  latitude: 45.773567
  longitude: -122.861726
  radius: 525
  icon: mdi:airport
  
- name: Nike
  latitude: 45.510729
  longitude: -122.832316
  radius: 850
  icon: mdi:briefcase
  
- name: Costco
  latitude: 45.685498
  longitude: -122.603699
  radius: 150
  icon: mdi:cart

- name: Sola
  latitude: 45.61698374921868
  longitude: -122.52989125493959
  radius: 40
  icon: mdi:content-cut

- name: Elements Massage
  latitude: 45.71771206032451
  longitude: -122.65700213156467
  radius: 20
  icon: mdi:spa

- name: Kelso
  latitude: 46.11901899897018
  longitude: -122.89682495656533
  radius: 525
  icon: mdi:airport
  
- name: Great Clips
  latitude: 45.72312468595898
  longitude: -122.65166029539483
  radius: 20
  icon: mdi:content-cut
  
- name: David & Eliza
  latitude: !secret macleod_lat
  longitude: !secret macleod_long
  radius: 23
  icon: mdi:home-outline
  
- name: Insitu Pacific
  latitude: !secret ipl_lat
  longitude: !secret ipl_long
  radius: 60
  icon: mdi:briefcase-outline

- name: Brisbane Mariott
  latitude: -27.463520621933913
  longitude: 153.03175817933058
  radius: 23
  icon: mdi:bed-outline

- name: Insitu Pacific Test Range
  latitude: !secret ipl_test_lat
  longitude: !secret ipl_test_long
  radius: 23
  icon: mdi:plane-car
  
- name: Trader Joe's
  latitude: 45.72239057540722
  longitude: -122.66114110687167
  radius: 35
  icon: mdi:cart
  
- name: Steph & Lukas
  latitude: !secret steph_lukas_sj_lat
  longitude: !secret steph_lukas_sj_long
  radius: 35    
  icon: mdi:home-outline
  
- name: OBGYN or Dentist
  latitude: 45.72219216899223
  longitude: -122.66206344420934
  radius: 24
  icon: mdi:hospital

- name: Legacy Salmon Creek
  latitude: 45.720826
  longitude: -122.648183
  radius: 140
  icon: mdi:hospital

- name: TVC Salmon Creek
  latitude: 45.720893
  longitude: -122.644395
  radius: 130
  icon: mdi:hospital
  
- name: TVC Camas
  latitude: 45.588589
  longitude: -122.469438
  radius: 65
  icon: mdi:hospital
  
- name: TVC Ridgefield
  latitude: 45.815201
  longitude: -122.691552
  radius: 53
  icon: mdi:hospital